,店家名,緯度,經度,地址,
澎湖,,,,,
,淼淼旅墅,23.53803301,119.5563405,880澎湖縣馬公市150號,
,大山營區旅宿,23.52608587,119.5609522,880澎湖縣馬公市300號,
,澎湖嵵裡。仙人掌海景民宿,23.52677344,119.5627841,88059澎湖縣馬公市時裡290號,
,澎湖香亭民宿,23.52673874,119.5694621,88059澎湖縣馬公市,
,日時行旅精緻民宿,23.52640544,119.5704074,880澎湖縣馬公市19-6號,
,那。故事水岸莊園民宿,23.51670392,119.5746608,880馬公市100號,
,澎湖嶼光。角落民宿Somewhere Guesthouse,23.51580542,119.5892248,880澎湖縣馬公市,
,微浮山水民宿,23.51572579,119.5895271,880澎湖縣馬公市珠江120之7號,
,平湖窩行旅 PH Hostel,23.56677551,119.5670643,880澎湖縣馬公市中興路22號,
,澎湖北吉光背包客民宿,23.5141477,119.5955935,880澎湖縣馬公市山水里17-26號,✔
,好美背包客 Nice Hostel,23.56491919,119.5665366,880澎湖縣馬公市啟明街6號,
,旅行者背包客棧,23.57934807,119.5759235,880澎湖縣馬公市五福路3巷32弄25號880,
,澎湖玩聚背包民宿,23.57023175,119.6124556,885澎湖縣湖西鄉,✔
,積木屋背包客棧,23.52749466,119.5859085,880澎湖縣馬公市五德里雞母塢97號,
,造夢先生背包客民宿,23.56415579,119.5649283,880澎湖縣馬公市惠安路8號,
,捌貳趣民宿,23.57573132,119.5698764,880澎湖縣馬公市自強街20巷4號,
,好天旅店民宿,23.56708985,119.5843684,880澎湖縣馬公市西文澳92-69號,
,澎湖維多麗亞民宿 青旅 Victoria,23.52895499,119.6025307,880澎湖縣馬公市鎖管港316號,
,提拉米宿海景民宿,23.58688965,119.5795889,880澎湖縣馬公市256之1號,
,杰源民宿,23.55700338,119.6307077,885澎湖縣湖西鄉168-1號,
,背包客民宿,23.5853195,119.5827483,"No. 277-2號, 西衛, 馬公市澎湖縣880",
,古道背包客棧,23.56435223,119.5645455,880澎湖縣馬公市71號,
,海樂民宿背包客,23.55377787,119.6161383,880澎湖縣馬公市316號,
,夢幻魚背包客民宿,23.53524929,119.603818,880澎湖縣馬公市173號,
,宿息幾迷背包客棧,23.5658138,119.6006514,880澎湖縣馬公101-2 號,
,風之島背包客,23.57224025,119.6141229,885澎湖縣湖西鄉號,
,巴巴小窩背包客民宿,23.5873798,119.6090182,8859388593澎湖縣湖西鄉許家村15之1號,
,輕舞飛揚背包客居旅民宿,23.58552384,119.5816631,880澎湖縣馬公市272-3 號,
,小貝殼背包客棧,23.57929498,119.6792598,885澎湖縣湖西鄉菓葉村菓葉46-2號,
,小地方背包客民宿 PLACE Backpackers,23.63142883,119.5979313,澎湖縣臺灣省1 137號之 講美村 Baisha,
,Go home Backpackers,23.56892342,119.6639878,885澎湖縣湖西鄉60 號,
,澎湖七號旅店民宿,23.52906014,119.6008198,880澎湖縣馬公市鎖港里387-3號,
,有間寓背包旅宿 Habitate HomeStay,23.59871971,119.6242686,885澎湖縣湖西鄉沙港1之5號,
,Champion Homestay 冠軍民宿,23.57883103,119.6177629,885澎湖縣湖西鄉260號,
,起點旅行民宿 D.C. Inn はじまりのゲストハウス,23.56832975,119.5675461,880澎湖縣馬公市文化路18之1號,
,夜之屋Night House,23.55789134,119.5934005,880澎湖縣馬公市11之39號,
,阿豹會館民宿,23.54711357,119.6136536,880澎湖縣馬公市131之10號,
,青·輕旅,23.55099427,119.6128803,880澎湖縣馬公市71-2號,
,就這兒 民宿 Here B&B,23.56660137,119.5658532,880澎湖縣馬公市永興街6號,
,蒙德里安山水民宿,23.51998999,119.595003,880澎湖縣馬公市珠江287號,
,澎湖船家寶民宿 SABAI BnB,23.57030963,119.6113229,885澎湖縣湖西鄉港底127號,
,起司餅乾民宿,23.58119368,119.6065346,880澎湖縣馬公市宅脚嶼160-3號,
,有間客棧,23.56754884,119.4802475,881澎湖縣西嶼鄉外垵村29-31號,
,西瀛旅社,23.56399829,119.5675312,880澎湖縣馬公市民福路9號,
,澎湖諾亞方舟民宿,23.57129192,119.6112358,"港底150號, 湖西鄉澎湖縣885",
,澎湖民宿-隘門168民宿,23.5571286,119.6308249,88593澎湖縣湖西鄉隘門村隘門168號,
,易宿家特色民宿,23.52611727,119.58786,880澎湖縣馬公市五德里141號,
,有間黑店驛站民宿,23.58793708,119.5826335,"No. 757號, 西衛, 馬公市澎湖縣880",
,來客佳民宿,23.56821281,119.6168323,885澎湖縣湖西鄉成功村142號之 1號,
,917民宿,23.58196129,119.6021568,88052澎湖縣馬公市安宅里宅腳嶼250號,
,見見灣海景民宿,23.58190087,119.5106402,881澎湖縣西嶼鄉146-6號,
,漁人的家,23.57475003,119.5019698,881澎湖縣西嶼鄉225-5號,
,澎湖香亭民宿,23.52674661,119.5694652,88059澎湖縣馬公市,
,澎湖臨海居度假會館,23.56326811,119.5670465,880澎湖縣馬公市臨海路10-6號,
,一二三石頭人民宿,"23.562254278904014,",119.5835715,880澎湖縣馬公市民富街42巷12號,
,大池星月灣民宿,23.6147756,119.5142744,881澎湖縣西嶼鄉大池村132號,
,澎湖熱帶魚民宿,23.56850405,119.5938551,"西文里 716號, 馬公市澎湖縣880",
,加利利海民宿,23.57865926,119.5814878,"880澎湖縣馬公市 西衛, 號",
,留星嶼民宿,23.65629208,119.5893984,"1 號, 29, 白沙鄉澎湖縣884",
,在水一方 Memory In Water B&B,23.58333808,119.5782318,"西衛, 馬公市澎湖縣880",
,歸宿 民宿 Destination Inn,23.52785887,119.5886338,澎湖縣馬公市88051-5號,
,海風情民宿,23.57958931,119.5816595,880澎湖縣馬公市西衛里西衛89-3號,
,姆居民宿,23.57768461,119.5725454,880澎湖縣馬公市三多路,
,海灣灣,23.57812452,119.5824729,880澎湖縣馬公市83-56號,
,古道背包客棧,23.56435004,119.5645452,880澎湖縣馬公市71號,
,西瀛旅社,23.56399612,119.5675283,880澎湖縣馬公市民福路9號,
,大山營區旅宿,23.52608879,119.5609533,880澎湖縣馬公市300號,
,好朋友民宿,23.57233718,119.602902,澎湖縣馬公市22號88093,
,百慶旅店,23.56675564,119.5687666,880澎湖縣馬公市三民路16號,
,海洋派對民宿,23.56106512,119.5906123,880澎湖縣馬公市東文澳100-2號,
,好時光民宿Good Time,23.58405247,119.5823118,880澎湖縣馬公市223-1號,
,慢活角落民宿,23.5839019,119.5825264,880澎湖縣馬公市西 衛 223-3 號,
,野居渡假民宿,23.58371016,119.5826639,"No. 221-15號, 西衛, 馬公市澎湖縣880",
,我們的民宿,23.55754233,119.5937422,880澎湖縣馬公市石泉里11之2號,
,木艮私宅•Mugen Homestay,23.55295793,119.5897619,880澎湖縣馬公市586號,
,艾的驛站民宿,23.56708673,119.5848697,澎湖縣馬公市西文澳92-29號880,
,23.5蔚藍民宿,23.63731801,119.5350853,881澎湖縣西嶼鄉后螺3之2號,
,唯你渡假民宿,23.58365283,119.5826513,"221之12號, No. 14鄰, 西衛, 馬公市澎湖縣880",
,天邊海角民宿,23.57362922,119.5671507,880澎湖縣馬公市民族路119號,
,流浪鯨魚民宿,23.53054164,119.6046007,880澎湖縣馬公市鎖港里18號,
,PENGHU LUCAI B&B 旅采民宿,23.52341067,119.5902782,880澎湖縣馬公市1鄰雞母塢216號,
,旅朋友民宿Travelfriends,23.58300716,119.6084438,885澎湖縣湖西鄉號,
小琉球,,,,,
,琉浪潛水背包客棧Drift Diving Hostel,22.32495307,120.3644877,929屏東縣琉球鄉忠孝路一巷2-6號, ✔
,奧之海潛水旅宿 Odyssey Divers Hostel,22.32786016,120.3576314,929屏東縣琉球鄉中正路57號, ✔
,琉影潛水,22.33049756,120.3586706,929屏東縣琉球鄉中正路1巷90-2號, ✔
,琉浪潛水背包客棧Drift Diving Hostel,22.32495219,120.3644926,929屏東縣琉球鄉忠孝路一巷2-6號, ✔
,co_diving 自由潛水工作室,22.33476833,120.3718092,929屏東縣琉球鄉和平路3巷1-5號, ✔
,酷落潛水 Kuroshio Diving,22.3352976,120.3714012,929屏東縣琉球鄉和平路13-3號, ✔
,小琉球-小綠龜潛水,22.33596029,120.3713078,929屏東縣琉球鄉和平路32-5號, ✔
,EXTD diving center 延伸潛水,22.33752494,120.3673792,929屏東縣琉球鄉中興路33-360號, ✔
,白牌自由潛水中心,22.34277216,120.363438,929屏東縣琉球鄉肚仔坪路15之2號, ✔
,Dive Buddy 自由潛水工作室&背包客棧,22.34054099,120.371368,929屏東縣琉球鄉中正路188之6號, ✔
,蹼客基地,22.34502459,120.3863856,929屏東縣琉球鄉三民路39-1號前方, ✔
,阿貴潛水中心,22.3461279,120.3883345,929屏東縣琉球鄉環島公路40-1號, ✔
,O2潛水俱樂部,22.3472335,120.3850874,929屏東縣琉球鄉三民路151之9號, ✔
,琉潛貨櫃潛水旅宿 Liuqiu Dive,22.34799012,120.3852213,929屏東縣琉球鄉本漁路81巷20之2號, ✔
,大眾浮潛,22.35237684,120.3828201,929屏東縣琉球鄉三民路277號, ✔
,阿Ya潛棧 A Ya Diving Hostel,22.34670329,120.3689004,929屏東縣琉球鄉復興路99號, ✔
,老婆潛水工作室,22.34561647,120.3749307,929屏東縣琉球鄉相埔路18之3號, ✔
,秘密客潛水旅宿,22.34662052,120.3738511,929屏東縣琉球鄉相埔路50號之3, ✔
,流星打氣站,22.34686494,120.3715676,929屏東縣琉球鄉相埔路79號之9號, ✔
,熊潛水培訓中心,22.34702907,120.3712214,929屏東縣琉球鄉相埔路87號, ✔
,夏琉民宿 The Summerflow Hostel,22.32358851,120.3575335,929屏東縣琉球鄉中正路5-8號,
,杉橘青旅 • Hinoki-G Hostel,22.32402892,120.3576517,929屏東縣琉球鄉中正路6號,
,嶼浪民宿,22.32481303,120.3610659,929屏東縣琉球鄉忠孝路70之15號,
,小琉球樂嶼日出民宿,22.32459997,120.3640274,929屏東縣琉球鄉忠孝路1巷13-5號,
,海明崴民宿,22.32447839,120.3638068,92942屏東縣琉球鄉忠孝路一巷1-16號,
,浪。境小琉球秘境民宿,22.3248356,120.3642879,929屏東縣琉球鄉忠孝路一巷2之11號,
,彩色屋民宿,22.32515316,120.3642705,929屏東縣琉球鄉南福村忠孝路一巷2之1號,
,小琉球歐若拉海景民宿,22.32909171,120.3545748,929屏東縣琉球鄉信義路51-1號,
,歡迎你民宿 WELCOME,22.32841802,120.3581703,92903屏東縣琉球鄉信義路9號,
,琉星小屋,22.32823442,120.358411,929屏東縣琉球鄉信義路3-7號,
,琉宿海景莊園,22.32895344,120.3563366,929屏東縣琉球鄉信義路39號,
,三姐民宿,22.32935926,120.356561,929屏東縣琉球鄉信義路18-2號,
,小琉球樂嶼海景民宿,22.34216983,120.3845961,92943屏東縣琉球鄉三民路1-61號,
,海洋風情渡假旅館,22.35339753,120.3821374,929屏東縣琉球鄉民生路73之1號,
,流浪背包客棧 Liuqiu Backpackers,22.34133914,120.3663091,929屏東縣琉球鄉上福村杉板路51巷34號, ✔
,小琉球雀巢背包客棧,22.35338987,120.381755,929屏東縣琉球鄉民生路87號,
,Sleep&go小琉球背包房,22.34600685,120.3739277,929屏東縣琉球鄉中興路289號2F,
, 漫慢旅宿,22.33825169,120.3747671,929屏東縣琉球鄉仁愛路34號, ✔
,暖琉背包客棧,22.33752562,120.3751129,929屏東縣琉球鄉仁愛路3-1號,
,居琉潛水背包客棧一館,22.34473109,120.3688026,929屏東縣琉球鄉中華路42-12號, ✔
,Slack BnB,22.34182723,120.3660978,929屏東縣琉球鄉衫板路51巷86號,
,琉Chill背包客棧,22.33807077,120.375222,929屏東縣琉球鄉仁愛路44之5號, ✔
,居琉潛水背包客棧二館,22.35249978,120.3826157,929屏東縣琉球鄉三民路283號, ✔
,小島，走走,22.34876314,120.3790331,929屏東縣琉球鄉中山路26-3號, ✔
,黑背包,22.34532999,120.3750167,929屏東縣琉球鄉相埔路16號,
,嶼海生活背包宿,22.35357147,120.3819783,92941屏東縣琉球鄉民生路87號2樓,
,LQ膠囊輕旅-LIUQIU,22.32948473,120.3590127,929屏東縣琉球鄉中正路1巷44號929,
,小琉球野原星之宿,22.34983227,120.3743467,929屏東縣琉球鄉復興路173號,
,小琉球獵戶座背包寨,22.34524498,120.3728239,929屏東縣琉球鄉中華路118號,
,InnOcean 在海裡潛水旅宿,22.34437855,120.3751217,929屏東縣琉球鄉中山路6-4號, ✔
,上福民宿 ,22.34688127,120.3717725,929屏東縣琉球鄉相埔路79-6號,
,自由空間旅宿 ,22.34867537,120.3786839,929屏東縣琉球鄉中山路51-5號2樓, ✔
,Sleep&go小琉球背包房,22.34599858,120.3739262,929屏東縣琉球鄉中興路289號2F,
,小琉球純 住宿True Hostel Xiao liuqiu,22.35109136,120.384165,929屏東縣琉球鄉三民路215號,
,Lixia Hostel 立夏旅宿,22.35028241,120.3803536,929屏東縣琉球鄉本漁路189號小琉球,
,小琉球船屋特色民宿,22.35223925,120.3820783,929屏東縣琉球鄉中山路224號,
,小琉球星月旅店,22.35142447,120.3813594,929屏東縣琉球鄉中山路116號,
,小琉球嗚啦啦聚所 oh la la Hostel,22.35086102,120.3768182,929屏東縣琉球鄉民族路88之1號1樓,
,燕燕青年旅店 Swallows Hostel,22.34581454,120.3872745,929屏東縣琉球鄉三民路20-3號,
,旅.Highway,22.33986896,120.3641047,929屏東縣琉球鄉復興路2之16號, ✔
,萊克民宿-小琉球民宿 包棟,22.34429349,120.3746582,92941屏東縣琉球鄉中山路11-1號,
,墨坊 - 海廢基地Morefun,22.34126879,120.3686944,92942屏東縣琉球鄉杉板路102號, ✔
,琉意旅宿,22.32975385,120.3586609,929屏東縣琉球鄉中正路1巷8號, ✔
,小琉球彼空映旅宿,22.34913525,120.3716671,929屏東縣琉球鄉杉福村復興路169之61號,
,濱境行旅 Begin Inn,22.3332163,120.3618554,"No. 19-3, 中興路琉球鄉屏東縣929",
,小琉球皮亞諾旅店,22.33775954,120.3752925,929屏東縣琉球鄉仁愛路42號,
,正好友生態環保旅店,22.35213574,120.3818531,929屏東縣琉球鄉中山路153號, ✔
,快樂小屋,22.34410228,120.3674602,929屏東縣琉球鄉復興路8之16號, ✔
,屏東小琉球海之旅民宿,22.34518176,120.3870889,929屏東縣琉球鄉三民路29-1號, ✔
,小琉球琉漾民宿,22.33093326,120.3641003,92942屏東縣琉球鄉忠孝路184-1號, ✔
,琉客棧民宿,22.33556501,120.3653856,929屏東縣琉球鄉中興路54之26號,
,Xpb民宿,22.33202882,120.3659103,929屏東縣琉球鄉中正路124-1號, ✔
,小琉球朵小路北歐民宿(Secret Path B&B),22.3510029,120.3743884,929屏東縣琉球鄉復興路163-2號,
,樓仔厝,22.35194671,120.3819036,929屏東縣琉球鄉中山路206號,
,Liuqiu Dive Hostel,22.34816292,120.385799,"No. 20-2, Lane 81, 本漁路琉球鄉屏東縣", ✔
,晴空宿,22.34286244,120.3684489,929屏東縣琉球鄉上杉路80之1號,
,空中花園聖誕屋,22.35271416,120.3823917,929屏東縣琉球鄉三民路297號,
,微浮包棟民宿,22.35012975,120.3796398,929屏東縣琉球鄉中山路81-1號,
,36潛旅店,22.34634442,120.3880366,929屏東縣琉球鄉三民路36號, ✔
,玩BOX Show琉球民宿,22.34779906,120.3660909,929屏東縣琉球鄉上杉路250之6號,
,小琉球【我們這一家輕旅宿】,22.34467758,120.3673092,929屏東縣琉球鄉上杉路130巷30號,
,七武海旅宿,22.34727677,120.3707178,929屏東縣琉球鄉相埔路102號, ✔
,極之宿,22.34474811,120.3669992,929屏東縣琉球鄉上杉路130巷3號,
,藍貝島潛水旅宿一館,22.34507397,120.3765757,929001屏東縣琉球鄉民權路50號之1, ✔
,首瓦包棟民宿,22.35133669,120.3803154,92941屏東縣琉球鄉中山路一巷50-2號,
,98旅店,22.34725272,120.370795,929屏東縣琉球鄉相埔路98號,
,貳拾捌旅店,22.34071095,120.3657689,929屏東縣琉球鄉上福村杉板路47之1號,
,小琉球 尊順祿藝術旅店,22.35093245,120.3813787,929屏東縣琉球鄉本漁路160巷13號,
,小火雞觀海民宿,22.34406068,120.3670404,929屏東縣琉球鄉復興路91-9號, ✔
,杉板灣Villa民宿 Shanban Bay Inn,22.34230751,120.3645151,929屏東縣琉球鄉肚仔坪路2號,
,旅境藝術旅店,22.35124416,120.3751657,929屏東縣琉球鄉復興路161-57號,
